{
    "type": "FeatureCollection",
    "features": [
        {
            "type": "Feature",
            "geometry": {
                "type": "Point",
                "coordinates": [
                    -74.02826809999999,
                    40.7754096,
                    0
                ]
            },
            "properties": {
                "name": "526 37th St - airbnb apartment",
		"category": "lodging"
            }
        },
        {
            "type": "Feature",
            "geometry": {
                "type": "Point",
                "coordinates": [
                    -74.02553999999998,
                    40.777095000000024,
                    0
                ]
            },
            "properties": {
                "name": "El Artesano Restaurant - Dinner 13/4",
		"category": "restaurant",
		"date": "2013-04-13"
            }
        },
        {
            "type": "Feature",
            "geometry": {
                "type": "Point",
                "coordinates": [
                    -74.027019,
                    40.774809,
                    0
                ]
            },
            "properties": {
                "name": "La Guardia Bakery - morning bread",
		"category": "cafe"
            }
        },
        {
            "type": "Feature",
            "geometry": {
                "type": "Point",
                "coordinates": [
                    -73.98559599999999,
                    40.748496,
                    0
                ]
            },
            "properties": {
                "name": "Empire State Building",
		"category": "monument",
		"date": "2013-04-14"
            }
        },
        {
            "type": "Feature",
            "geometry": {
                "type": "Point",
                "coordinates": [
                    -73.95628399999998,
                    40.784642,
                    0
                ]
            },
            "properties": {
                "name": "Yura On Madison - Lunch",
		"category": "restaurant",
		"date": "2013-04-14"
            }
        },
        {
            "type": "Feature",
            "geometry": {
                "type": "Point",
                "coordinates": [
                    -73.96535499999999,
                    40.782865,
                    0
                ]
            },
            "properties": {
                "name": "Central Park - Lunch",
		"category": "park",
		"date": "2013-04-14"
            }
        },
        {
            "type": "Feature",
            "geometry": {
                "type": "Point",
                "coordinates": [
                    -73.98422800000003,
                    40.753995,
                    0
                ]
            },
            "properties": {
                "name": "Bryant Park - 14/4 och 19/4",
		"category": "park",
		"date": "2013-04-14"
            }
        },
        {
            "type": "Feature",
            "geometry": {
                "type": "Point",
                "coordinates": [
                    -73.977056,
                    40.752998,
                    0
                ]
            },
            "properties": {
                "name": "Grand Central",
		"category": "monument",
		"date": "2013-04-14"
            }
        },
        {
            "type": "Feature",
            "geometry": {
                "type": "Point",
                "coordinates": [
                    -73.98615899999999,
                    40.747601,
                    0
                ]
            },
            "properties": {
                "name": "Kunjip - korean dinner",
		"category": "restaurant",
		"date": "2013-04-14"
            }
        },
        {
            "type": "Feature",
            "geometry": {
                "type": "Point",
                "coordinates": [
                    -73.97774300000003,
                    40.761456,
                    0
                ]
            },
            "properties": {
                "name": "The Museum of Modern Art",
		"category": "art-gallery",
		"date": "2013-04-15"
            }
        },
        {
            "type": "Feature",
            "geometry": {
                "type": "Point",
                "coordinates": [
                    -73.98874,
                    40.750576,
                    0
                ]
            },
            "properties": {
                "name": "Macy's",
		"category": "shop",
		"date": "2013-04-15"
            }
        },
        {
            "type": "Feature",
            "geometry": {
                "type": "Point",
                "coordinates": [
                    -73.98415,
                    40.747594,
                    0
                ]
            },
            "properties": {
                "name": "The Compleat Strategist - 15&21/4",
                "description": "illuminati",
		"category": "shop",
		"date": "2013-04-15"
            }
        },
        {
            "type": "Feature",
            "geometry": {
                "type": "Point",
                "coordinates": [
                    -73.98932000000002,
                    40.743278,
                    0
                ]
            },
            "properties": {
                "name": "Hill Country Chicken",
		"category": "restaurant",
		"date": "2013-04-15"
            }
        },
        {
            "type": "Feature",
            "geometry": {
                "type": "Point",
                "coordinates": [
                    -74.00052499999998,
                    40.721514,
                    0
                ]
            },
            "properties": {
                "name": "Pearl River Mart - kinashop",
		"category": "shop",
		"date": "2013-04-16"
            }
        },
        {
            "type": "Feature",
            "geometry": {
                "type": "Point",
                "coordinates": [
                    -73.99990200000002,
                    40.721378,
                    0
                ]
            },
            "properties": {
                "name": "Topshop",
		"category": "shop",
		"date": "2013-04-16"
            }
        },
        {
            "type": "Feature",
            "geometry": {
                "type": "Point",
                "coordinates": [
                    -74.00488100000001,
                    40.7288,
                    0
                ]
            },
            "properties": {
                "name": "La Camelia - mexican lunch",
		"category": "restaurant",
		"date": "2013-04-16"
            }
        },
        {
            "type": "Feature",
            "geometry": {
                "type": "Point",
                "coordinates": [
                    -73.99733200000003,
                    40.730823,
                    0
                ]
            },
            "properties": {
                "name": "Washington Square Park - sol",
		"category": "park",
		"date": "2013-04-16"
            }
        },
        {
            "type": "Feature",
            "geometry": {
                "type": "Point",
                "coordinates": [
                    -74.00044300000002,
                    40.730242,
                    0
                ]
            },
            "properties": {
                "name": "Caffe Reggio",
		"category": "cafe",
		"date": "2013-04-16"
            }
        },
        {
            "type": "Feature",
            "geometry": {
                "type": "Point",
                "coordinates": [
                    -74.005536,
                    40.741288,
                    0
                ]
            },
            "properties": {
                "name": "Apple Store, West 14th Street",
		"category": "shop",
		"date": "2013-04-16"
            }
        },
        {
            "type": "Feature",
            "geometry": {
                "type": "Point",
                "coordinates": [
                    -74.00471779999998,
                    40.74791760000001,
                    0
                ]
            },
            "properties": {
                "name": "High Line",
		"category": "monument",
		"date": "2013-04-16"
            }
        },
        {
            "type": "Feature",
            "geometry": {
                "type": "Point",
                "coordinates": [
                    -73.99401499999999,
                    40.751961,
                    0
                ]
            },
            "properties": {
                "name": "Stage Door - pre basket 16/4",
		"category": "restaurant",
		"date": "2013-04-16"
            }
        },
        {
            "type": "Feature",
            "geometry": {
                "type": "Point",
                "coordinates": [
                    -73.99343899999997,
                    40.750504,
                    0
                ]
            },
            "properties": {
                "name": "Madison Square Garden - knicks vs raptors",
		"category": "basketball",
		"date": "2013-04-16"
            }
        },
        {
            "type": "Feature",
            "geometry": {
                "type": "Point",
                "coordinates": [
                    -73.963346,
                    40.779532,
                    0
                ]
            },
            "properties": {
                "name": "The Metropolitan Museum of Art",
		"category": "art-gallery",
		"date": "2013-04-17"
            }
        },
        {
            "type": "Feature",
            "geometry": {
                "type": "Point",
                "coordinates": [
                    -73.9910835,
                    40.7358633,
                    0
                ]
            },
            "properties": {
                "name": "Union Square - 17&22/4",
                "description": "inkl barnes & nobles",
		"category": "park",
		"date": "2013-04-17"
            }
        },
        {
            "type": "Feature",
            "geometry": {
                "type": "Point",
                "coordinates": [
                    -74.00516766137696,
                    40.742139666015596,
                    0
                ]
            },
            "properties": {
                "name": "Chelsea Market",
		"category": "shop",
		"date": "2013-04-17"
            }
        },
        {
            "type": "Feature",
            "geometry": {
                "type": "Point",
                "coordinates": [
                    -74.02262200000001,
                    40.752725,
                    0
                ]
            },
            "properties": {
                "name": "Hoboken 14th St Pier - 18/4",
		"category": "ferry",
		"date": "2013-04-18"
            }
        },
        {
            "type": "Feature",
            "geometry": {
                "type": "Point",
                "coordinates": [
                    -73.97398800000002,
                    40.781324,
                    0
                ]
            },
            "properties": {
                "name": "American Museum of Natural History",
		"category": "museum",
		"date": "2013-04-18"
            }
        },
        {
            "type": "Feature",
            "geometry": {
                "type": "Point",
                "coordinates": [
                    -73.981811,
                    40.763422,
                    0
                ]
            },
            "properties": {
                "name": "Stage Deli",
		"category": "restaurant",
		"date": "2013-04-18"
            }
        },
        {
            "type": "Feature",
            "geometry": {
                "type": "Point",
                "coordinates": [
                    -73.98447220000003,
                    40.759011,
                    0
                ]
            },
            "properties": {
                "name": "Times Square",
		"category": "monument",
		"date": "2013-04-18"
            }
        },
        {
            "type": "Feature",
            "geometry": {
                "type": "Point",
                "coordinates": [
                    -74.01116100000002,
                    40.776837,
                    0
                ]
            },
            "properties": {
                "name": "Port Imperial Ferry Terminal",
		"category": "ferry",
		"date": "2013-04-18"
            }
        },
        {
            "type": "Feature",
            "geometry": {
                "type": "Point",
                "coordinates": [
                    -74.00008200000002,
                    40.715052,
                    0
                ]
            },
            "properties": {
                "name": "Columbus Park",
		"category": "park",
		"date": "2013-04-19"
            }
        },
        {
            "type": "Feature",
            "geometry": {
                "type": "Point",
                "coordinates": [
                    -73.998359,
                    40.714807,
                    0
                ]
            },
            "properties": {
                "name": "Joe's Ginger - lunch",
		"category": "restaurant",
		"date": "2013-04-19"
            }
        },
        {
            "type": "Feature",
            "geometry": {
                "type": "Point",
                "coordinates": [
                    -73.98860100000002,
                    40.716252,
                    0
                ]
            },
            "properties": {
                "name": "Doughnut Plant",
		"category": "cafe",
		"date": "2013-04-19"
            }
        },
        {
            "type": "Feature",
            "geometry": {
                "type": "Point",
                "coordinates": [
                    -73.98719100000001,
                    40.722,
                    0
                ]
            },
            "properties": {
                "name": "Il Laboratorio del Gelato",
		"category": "cafe",
		"date": "2013-04-19"
            }
        },
        {
            "type": "Feature",
            "geometry": {
                "type": "Point",
                "coordinates": [
                    -73.98604,
                    40.759285,
                    0
                ]
            },
            "properties": {
                "name": "Lunt-Fontanne Theatre",
		"category": "theatre",
		"date": "2013-04-18"
            }
        },
        {
            "type": "Feature",
            "geometry": {
                "type": "Point",
                "coordinates": [
                    -74.006059,
                    40.712774,
                    0
                ]
            },
            "properties": {
                "name": "New York City Hall",
		"category": "town-hall",
		"date": "2013-04-20"
            }
        },
        {
            "type": "Feature",
            "geometry": {
                "type": "Point",
                "coordinates": [
                    -73.99917319999997,
                    40.7079999,
                    0
                ]
            },
            "properties": {
                "name": "Brooklyn Bridge",
		"category": "monument",
		"date": "2013-04-20"
            }
        },
        {
            "type": "Feature",
            "geometry": {
                "type": "Point",
                "coordinates": [
                    -73.99701800000003,
                    40.701708,
                    0
                ]
            },
            "properties": {
                "name": "Brooklyn Bridge Park - 20/4",
		"category": "park"
            }
        },
        {
            "type": "Feature",
            "geometry": {
                "type": "Point",
                "coordinates": [
                    -74.001551,
                    40.694864,
                    0
                ]
            },
            "properties": {
                "name": "Smorgasburg",
		"category": "restaurant",
		"date": "2013-04-20"
            }
        },
        {
            "type": "Feature",
            "geometry": {
                "type": "Point",
                "coordinates": [
                    -73.97792449999997,
                    40.6713197,
                    0
                ]
            },
            "properties": {
                "name": "Brooklyn Flea Market",
		"category": "shop",
		"date": "2013-04-20"
            }
        },
        {
            "type": "Feature",
            "geometry": {
                "type": "Point",
                "coordinates": [
                    -74.01361099999997,
                    40.711667,
                    0
                ]
            },
            "properties": {
                "name": "9/11 Memorial",
		"category": "monument",
		"date": "2013-04-20"
            }
        },
        {
            "type": "Feature",
            "geometry": {
                "type": "Point",
                "coordinates": [
                    -74.012066,
                    40.707985,
                    0
                ]
            },
            "properties": {
                "name": "Trinity Church",
		"category": "place-of-worship",
		"date": "2013-04-20"
            }
        },
        {
            "type": "Feature",
            "geometry": {
                "type": "Point",
                "coordinates": [
                    -74.01699000000002,
                    40.703165000000006,
                    0
                ]
            },
            "properties": {
                "name": "Battery Park",
		"category": "park",
		"date": "2013-04-20"
            }
        },
        {
            "type": "Feature",
            "geometry": {
                "type": "Point",
                "coordinates": [
                    -74.02822800000001,
                    40.771235,
                    0
                ]
            },
            "properties": {
                "name": "Maria Mentiras Bar & Grill",
		"category": "restaurant",
		"date": "2013-04-20"
            }
        },
        {
            "type": "Feature",
            "geometry": {
                "type": "Point",
                "coordinates": [
                    -74.04250200000003,
                    40.706799,
                    0
                ]
            },
            "properties": {
                "name": "Liberty State Park",
		"category": "ferry",
		"date": "2013-04-21"
            }
        },
        {
            "type": "Feature",
            "geometry": {
                "type": "Point",
                "coordinates": [
                    -74.03955959999996,
                    40.6994721,
                    0
                ]
            },
            "properties": {
                "name": "Ellis Island",
		"category": "museum",
		"date": "2013-04-21"
            }
        },
        {
            "type": "Feature",
            "geometry": {
                "type": "Point",
                "coordinates": [
                    -74.04506750000002,
                    40.6900495,
                    0
                ]
            },
            "properties": {
                "name": "Liberty Island",
		"category": "monument",
		"date": "2013-04-21"
            }
        },
        {
            "type": "Feature",
            "geometry": {
                "type": "Point",
                "coordinates": [
                    -73.988205,
                    40.741449,
                    0
                ]
            },
            "properties": {
                "name": "Shake Shack - best burger?",
		"category": "restaurant",
		"date": "2013-04-22"
            }
        },
        {
            "type": "Feature",
            "geometry": {
                "type": "Point",
                "coordinates": [
                    -73.99226899999996,
                    40.753285,
                    0
                ]
            },
            "properties": {
                "name": "Short-Term Stow",
		"category": "suitcase",
		"date": "2013-04-22"
            }
        }
    ]
}
